{
"type": "FeatureCollection",
"name": "S_L1",
"crs": { "type": "name", "properties": { "name": "urn:ogc:def:crs:OGC:1.3:CRS84" } },
"features": [
{ "type": "Feature", "properties": { "id": null, "name": "Place Al Joulane L1" }, "geometry": { "type": "Point", "coordinates": [ -6.831434010199148, 34.018033016777487 ] } },
{ "type": "Feature", "properties": { "id": null, "name": "Agdal-Avenue de France أكدال-شارع فرنسا" }, "geometry": { "type": "Point", "coordinates": [ -6.849279010213993, 33.997259016797841 ] } },
{ "type": "Feature", "properties": { "id": null, "name": "Bab Lamrissa باب لمريسة" }, "geometry": { "type": "Point", "coordinates": [ -6.819422010188985, 34.032154016763485 ] } },
{ "type": "Feature", "properties": { "id": null, "name": "Bab Rouah باب الرواح" }, "geometry": { "type": "Point", "coordinates": [ -6.839418010202251, 34.011773016781078 ] } },
{ "type": "Feature", "properties": { "id": null, "name": "Bibliothèque Nationale" }, "geometry": { "type": "Point", "coordinates": [ -6.843001010203503, 34.009085016782457 ] } },
{ "type": "Feature", "properties": { "id": null, "name": "Cité Universitaire Souissi الحي الجامعي السويسي" }, "geometry": { "type": "Point", "coordinates": [ -6.860932010220803, 33.986158016806641 ] } },
{ "type": "Feature", "properties": { "id": null, "name": "Diar ديار" }, "geometry": { "type": "Point", "coordinates": [ -6.815473010180861, 34.040891016751395 ] } },
{ "type": "Feature", "properties": { "id": null, "name": "Gare de Salé محطة القطار سلا" }, "geometry": { "type": "Point", "coordinates": [ -6.816305010183886, 34.037925016755999 ] } },
{ "type": "Feature", "properties": { "id": null, "name": "Hay Karima حي كريمة" }, "geometry": { "type": "Point", "coordinates": [ -6.79446701017639, 34.05417401674768 ] } },
{ "type": "Feature", "properties": { "id": null, "name": "Ibn Khaldoun ابن خلدون" }, "geometry": { "type": "Point", "coordinates": [ -6.843146010208831, 34.004452016790744 ] } },
{ "type": "Feature", "properties": { "id": null, "name": "Ibn Rochd ابن رشد" }, "geometry": { "type": "Point", "coordinates": [ -6.857979010218766, 33.989240016803926 ] } },
{ "type": "Feature", "properties": { "id": null, "name": "Ibn Sina ابن سينا" }, "geometry": { "type": "Point", "coordinates": [ -6.852336010214758, 33.995224016798581 ] } },
{ "type": "Feature", "properties": { "id": null, "name": "La Poste البريد" }, "geometry": { "type": "Point", "coordinates": [ -6.806827010180029, 34.045496016751443 ] } },
{ "type": "Feature", "properties": { "id": null, "name": "Madinat Al Irfane مدينة العرفان" }, "geometry": { "type": "Point", "coordinates": [ -6.864307010223111, 33.982654016809718 ] } },
{ "type": "Feature", "properties": { "id": null, "name": "Mohammed V - Gare de Rabat" }, "geometry": { "type": "Point", "coordinates": [ -6.836165010198985, 34.016041016776491 ] } },
{ "type": "Feature", "properties": { "id": null, "name": "Mohammed V-Opéra محمد الخامس-أوبرا" }, "geometry": { "type": "Point", "coordinates": [ -6.811426010180306, 34.043187016751169 ] } },
{ "type": "Feature", "properties": { "id": null, "name": "Nations Unies الأمم المتحدة" }, "geometry": { "type": "Point", "coordinates": [ -6.843962010213936, 33.999708016798593 ] } },
{ "type": "Feature", "properties": { "id": null, "name": "Place Al Joulane L1" }, "geometry": { "type": "Point", "coordinates": [ -6.831452010199106, 34.018063016777418 ] } },
{ "type": "Feature", "properties": { "id": null, "name": "Place du 16 Novembre ساحة 16 نونبر" }, "geometry": { "type": "Point", "coordinates": [ -6.825250010194282, 34.024991016770848 ] } },
{ "type": "Feature", "properties": { "id": null, "name": "Pont Hassan II قنطرة الحسن الثاني" }, "geometry": { "type": "Point", "coordinates": [ -6.822136010195422, 34.02541701677309 ] } },
{ "type": "Feature", "properties": { "id": null, "name": "Tabriquet تابريكت" }, "geometry": { "type": "Point", "coordinates": [ -6.800961010180654, 34.0476000167533 ] } },
{ "type": "Feature", "properties": { "id": null, "name": "Tour Hassan" }, "geometry": { "type": "Point", "coordinates": [ -6.826644010200113, 34.019365016779716 ] } }
]
}
